[
  {
    "id": 1,
    "restaurant": "Suite 66",
    "peopleCount": 1,
    "Day": "Ngày mai",
    "Hour": "8:00-9:00",
    "Name": "Geri Weekes",
    "phoneNumber": "3553816231",
    "Note": "",
    "userID": 2
  },
  {
    "id": 2,
    "Location": "Room 1770",
    "peopleCount": 2,
    "Day": "Ngày mai",
    "Hour": "8:00-9:00",
    "Name": "Falito Rearie",
    "phoneNumber": "8644395403",
    "Note": "",
    "userID": 2
  },
  {
    "id": 3,
    "Location": "Suite 27",
    "peopleCount": 3,
    "Day": "Ngày mai",
    "Hour": "8:00-9:00",
    "Name": "Trish Ambrogini",
    "phoneNumber": "2087495621",
    "Note": "",
    "userID": 2
  },
  {
    "id": 4,
    "Location": "Apt 678",
    "peopleCount": 4,
    "Day": "Ngày mai",
    "Hour": "8:00-9:00",
    "Name": "Naomi O'Deegan",
    "phoneNumber": "6126105839",
    "Note": "",
    "userID": 2
  },
  {
    "id": 5,
    "Location": "PO Box 32443",
    "peopleCount": 5,
    "Day": "Ngày mai",
    "Hour": "8:00-9:00",
    "Name": "Mathilda Rubinivitz",
    "phoneNumber": "8309576323",
    "Note": "",
    "userID": 2
  },
  {
    "id": 6,
    "Location": "Suite 15",
    "peopleCount": 6,
    "Day": "Ngày mai",
    "Hour": "8:00-9:00",
    "Name": "Allix Dudman",
    "phoneNumber": "4707635580",
    "Note": "",
    "userID": 2
  },
  {
    "id": 7,
    "Location": "Room 769",
    "peopleCount": 7,
    "Day": "Ngày mai",
    "Hour": "8:00-9:00",
    "Name": "Livvyy Kinvan",
    "phoneNumber": "1667975668",
    "Note": "",
    "userID": 2
  },
  {
    "id": 8,
    "Location": "2nd Floor",
    "peopleCount": 8,
    "Day": "Ngày mai",
    "Hour": "8:00-9:00",
    "Name": "Loy Lemarie",
    "phoneNumber": "5179350630",
    "Note": "",
    "userID": 2,
    "userID": 2
  },
  {
    "id": 9,
    "Location": "Apt 1842",
    "peopleCount": 9,
    "Day": "Ngày mai",
    "Hour": "8:00-9:00",
    "Name": "Jolene Restall",
    "phoneNumber": "8051958265",
    "Note": "",
    "userID": 2
  },
  {
    "id": 10,
    "Location": "11th Floor",
    "peopleCount": 10,
    "Day": "Ngày mai",
    "Hour": "8:00-9:00",
    "Name": "Jerrilyn Notley",
    "phoneNumber": "8376731441",
    "Note": "",
    "userID": 2
  }
]
